[
    {
     "lat": 33.51152,
     "lng": 126.52,
     "name": "우진해장국",
     "addr": "제주 제주시 서사로 11-0",
     "tourtype": "한식",
     "top": 1,
     "attr_num": 4964,
     "img": "https:\/\/api.cdn.visitjeju.net\/photomng\/imgpath\/202110\/22\/d3315a0a-ccf0-4f0d-93c1-12c804558a71.JPG",
     "intro": "제주 향토 음식인 고사리 해장국을 만날 수 있는 한식당",
     "tel": "064-757-3393"
    },
    {
     "lat": 33.49857,
     "lng": 126.4588,
     "name": "자매국수 본점",
     "addr": "제주 제주시 항골남길 46-0",
     "tourtype": "한식",
     "top": 2,
     "attr_num": 4514,
     "img": "https:\/\/api.cdn.visitjeju.net\/photomng\/imgpath\/202112\/30\/378a7082-daea-4c2c-abfd-942e4ee109a5.jpg",
     "intro": "삼도이동 해안가에 위치한 자매국수 본점은 많은 관광객들이 찾는 제주의 손꼽히는 고기국수 맛집이다.",
     "tel": "064-746-2222"
    },
 {
  "lat": 33.2496,
  "lng": 126.5678,
  "name": "오는정김밥",
  "addr": "제주 서귀포시 동문동로 2-0",
  "tourtype": "간이음식",
  "top": 3,
  "attr_num": 4399,
  "img": "https:\/\/api.cdn.visitjeju.net\/photomng\/imgpath\/202111\/10\/69c1f4fd-2d95-48b0-a1ed-4c14e7a3ac1f.jpg",
  "intro": "서귀포에 위치한 쫄깃한 튀김의 식감이 살아있는 김밥집.",
  "tel": "064-762-8927"
 },
 {
  "lat": 33.55356,
  "lng": 126.7155,
  "name": "런던베이글뮤지엄",
  "addr": "제주 제주시 동복로 85-0",
  "tourtype": "간이음식",
  "top": 4,
  "attr_num": 622,
  "img": "https:\/\/api.cdn.visitjeju.net\/photomng\/imgpath\/202306\/27\/6803a074-eb48-4c85-835b-9177b6173ca0.jpeg",
  "intro": "다양한 베이글과 크림치즈, 굿즈가 넘치는 맛집",
  "tel": "010-6425-3018"
 },
 {
  "lat": 33.23947,
  "lng": 126.3193,
  "name": "원앤온리",
  "addr": "제주 서귀포시 산방로 141-0",
  "tourtype": "카페\/찻집",
  "top": 5,
  "attr_num": 3203,
  "img": "https:\/\/api.cdn.visitjeju.net\/photomng\/imgpath\/201907\/01\/be2e51b1-b177-4f7f-9693-6e28807ba7f6.jpg",
  "intro": "제주에서 가장 아름다운 오션뷰 라운지",
  "tel": "064-794-0117"
 },
 {
  "lat": 33.25932,
  "lng": 126.4058,
  "name": "연돈",
  "addr": "제주 서귀포시 색달로 10-0",
  "tourtype": "전문음식",
  "top": 6,
  "attr_num": 5214,
  "img": "https:\/\/blog.kakaocdn.net\/dn\/eoLNKV\/btrlV0FGE1v\/k94KFycrkfYsmAutSNyAw1\/img.jpg",
  "intro": "대한민국 제주특별자치도 서귀포시 중문관광단지 인근과 서울 강남에 위치한 돈까스 전문 요리점 프랜차이즈이며, 방송을 타고 나서 유명세를 얻게 된 대표적인 식당이다.",
  "tel": "0507-1386-7060"
 },
 {
  "lat": 33.46331,
  "lng": 126.3098,
  "name": "카페노티드 제주애월",
  "addr": "제주 제주시 애월로1길 24-9",
  "tourtype": "카페\/찻집",
  "top": 7,
  "attr_num": 3078,
  "img": "https:\/\/api.cdn.visitjeju.net\/photomng\/imgpath\/202305\/30\/97a2e75d-fd57-4208-8889-c4d97e277e2b.jpg",
  "intro": "시그니처 크림이 가득한 도넛과 귀여운 패키징",
  "tel": "010-4925-9377"
 },
 {
  "lat": 33.24427,
  "lng": 126.415,
  "name": "더클리프",
  "addr": "제주 서귀포시 중문관광로 154-17",
  "tourtype": "카페\/찻집",
  "top": 8,
  "attr_num": 3215,
  "img": "https:\/\/api.cdn.visitjeju.net\/photomng\/imgpath\/202201\/04\/80d7b001-b461-4e5e-aaca-8842d146c7df.jpg",
  "intro": "중문 해수욕장에 위치한 복합 어뮤즈먼트 공간 더 클리프는 선셋을 감상할 수 있는 최고의 뷰를 지닌 장소로 이색적인 공간에서 다양하고 맛있는 식음료를 제공하고 있다.",
  "tel": "064-738-8866"
 },
 {
  "lat": 33.54239,
  "lng": 126.6711,
  "name": "숙성도 함덕점",
  "addr": "제주특별자치도 제주시 조천읍 함덕로 40",
  "tourtype": "한식",
  "top": 9,
  "attr_num": 3060,
  "img": "https:\/\/api.cdn.visitjeju.net\/photomng\/imgpath\/202305\/31\/bb8f2951-93cb-4642-8dcf-b0fa621b5ab2.jpg",
  "intro": "오랜 시간 숙성을 거친 비교불가 흑돼지",
  "tel": "064-783-9951"
 },
 {
  "lat": 33.43319,
  "lng": 126.7508,
  "name": "블루보틀제주",
  "addr": "제주 제주시 번영로 2133-30",
  "tourtype": "카페\/찻집",
  "top": 10,
  "attr_num": 5215,
  "img": "https:\/\/storage.heypop.kr\/assets\/2021\/08\/13162012\/BBC_JJ_interior_01-768x512.jpeg",
  "intro": "화강암으로 만든 울타리와 원목이 많이 쓰인 내부 인테리어를 톨해 제주도 특유의 가옥 양식을 반영하였다. 제주도에 있는 유일한 블루보틀 매장",
  "tel": "1533-6906"
 },
 {
  "lat": 33.51679,
  "lng": 126.5036,
  "name": "스타벅스제주서해안로DT점",
  "addr": "제주 제주시 서해안로 624-0",
  "tourtype": "카페\/찻집",
  "top": 11,
  "attr_num": 5216,
  "img": "https:\/\/blog.kakaocdn.net\/dn\/NFYWy\/btrbOJVceos\/SliXfDTNSl3aRLWvP0P3Gk\/img.png",
  "intro": "시그니처 로스팅, 가벼운 식사, 무료 Wi-Fi로 잘 알려진 미국 시애틀 기반의 커피하우스 체인점입니다.",
  "tel": "1522-3232"
 },
 {
  "lat": 33.54382,
  "lng": 126.6688,
  "name": "델문도",
  "addr": "제주 제주시 조함해안로 519-10",
  "tourtype": "카페\/찻집",
  "top": 12,
  "attr_num": 4780,
  "img": "https:\/\/api.cdn.visitjeju.net\/photomng\/imgpath\/201804\/30\/8577b39c-9ab7-4f8d-a5f1-c09ca6b6b15e.jpg",
  "intro": "함덕 해수욕장 한가운데에 위치한 서우봉과 해변 풍경이 아름다운 카페",
  "tel": "064-702-0007"
 },
 {
  "lat": 33.47262,
  "lng": 126.3487,
  "name": "스타벅스제주애월DT점",
  "addr": "제주 제주시 애월해안로 376-0",
  "tourtype": "카페\/찻집",
  "top": 13,
  "attr_num": 5217,
  "img": "https:\/\/media-cdn.tripadvisor.com\/media\/photo-s\/11\/58\/1a\/22\/20171023-152825-largejpg.jpg",
  "intro": "시그니처 로스팅, 가벼운 식사, 무료 Wi-Fi로 잘 알려진 미국 시애틀 기반의 커피하우스 체인점입니다.",
  "tel": "1522-3232"
 },
 {
  "lat": 33.48505,
  "lng": 126.485,
  "name": "숙성도노형본관",
  "addr": "제주 제주시 원노형로 41-0",
  "tourtype": "한식",
  "top": 14,
  "attr_num": 4676,
  "img": "https:\/\/api.cdn.visitjeju.net\/photomng\/imgpath\/202112\/30\/c0f64a55-2997-413e-bd27-22bf05978fa9.jpg",
  "intro": "노형동에 위치한 숙성도 본점은 제주산 흑돼지를 숙성하여 특수부위까지 전문적으로 맛 볼 수 있는 곳으로 제주에는 노형동 본점과 중문점이 있다.",
  "tel": "0507-1335-5211"
 },
 {
  "lat": 33.25804,
  "lng": 126.4168,
  "name": "고집돌우럭(중문)",
  "addr": "제주 서귀포시 일주서로 879-0",
  "tourtype": "한식",
  "top": 15,
  "attr_num": 4856,
  "img": "https:\/\/api.cdn.visitjeju.net\/photomng\/imgpath\/201804\/30\/4c7cb04a-1511-4342-88c4-f4e94e63183b.jpg",
  "intro": "메인메뉴는 탱글탱글 살아있는 식감의 우럭조림",
  "tel": "0507-1408-1540"
 }
]